{
  "type": "FeatureCollection",
  "features": [
    {
      "type": "Feature",
      "properties": {
        "name": "Fulton Brewing Co",
        "address": "414 6th Ave N",
        "city": "Minneapolis",
        "state": "MN",
        "zip": "55401",
        "monday": "",
        "tuesday": "3pm-10pm",
        "wednesday": "3pm-10pm",
        "thursday": "3pm-10pm",
        "friday": "3pm-11pm",
        "saturday": "12pm-11pm",
        "sunday": "12pm-6pm",
        "comments": "2014 - 13,000 barrels produced (5th in MN)",
        "brew_type": "Brewery",
        "website": "http://www.fultonbeer.com/",
        "longitude": -93.27920282199993,
        "latitude": 44.98494304000007,
        "created_date": null,
        "created_by": null,
        "id": 1
      },
      "geometry": {
        "type": "Point",
        "coordinates": [
          -93.27920282199993,
          44.98494304000007
        ]
      }
    },
    {
      "type": "Feature",
      "properties": {
        "name": "Modist Brewing Co",
        "address": "505 N 3rd St ",
        "city": "Minneapolis",
        "state": "MN",
        "zip": "55401",
        "monday": "",
        "tuesday": "4pm-10pm",
        "wednesday": "4pm-10pm",
        "thursday": "4pm-10pm",
        "friday": "12pm-12am",
        "saturday": "12pm-12am",
        "sunday": "12pm-6pm",
        "comments": "",
        "brew_type": "Brewery",
        "website": "http://modistbrewing.com/",
        "longitude": -93.27648348799995,
        "latitude": 44.98508059400006,
        "created_date": null,
        "created_by": null,
        "id": 2
      },
      "geometry": {
        "type": "Point",
        "coordinates": [
          -93.27648348799995,
          44.98508059400006
        ]
      }
    },
    {
      "type": "Feature",
      "properties": {
        "name": "Inbound BrewCo",
        "address": "701 N 5th St",
        "city": "Minneapolis",
        "state": "MN",
        "zip": "55401",
        "monday": "12pm-12am",
        "tuesday": "12pm-12am",
        "wednesday": "12pm-12am",
        "thursday": "12pm-12am",
        "friday": "12pm-12am",
        "saturday": "11am-12am",
        "sunday": "11am-12am",
        "comments": "",
        "brew_type": "Brewery",
        "website": "http://inboundbrew.co",
        "longitude": -93.28144093299993,
        "latitude": 44.98555874100003,
        "created_date": null,
        "created_by": null,
        "id": 3
      },
      "geometry": {
        "type": "Point",
        "coordinates": [
          -93.28144093299993,
          44.98555874100003
        ]
      }
    }
  ]
}